Timestamp,Voltage,Throttle mV,Throttle %,RPM,Torque,Motor Temp,Current,Pitch,Roll,Yaw,Ax,Ay,Az,Heading,Power
0.0,1425.0,158.0,0.056428571428571425,0,0.0,19.0,0.0,0.0,0.0,0.0,0.0,0.0,0.0,0.0,0.0
277.0,1425.0,166.0,0.05928571428571429,0,0.0,19.0,0.0,0.0,0.0,0.0,0.0,0.0,0.0,0.0,0.0
517.0,1425.0,155.0,0.055357142857142855,-2,0.0,20.0,0.0,0.0,0.0,0.0,0.0,0.0,0.0,0.0,0.0
701.0,1425.0,155.0,0.055357142857142855,-2,0.0,19.0,0.0,0.0,0.0,0.0,0.0,0.0,0.0,0.0,0.0
932.0,1425.0,150.0,0.05357142857142857,0,0.0,19.0,0.0,0.0,0.0,0.0,0.0,0.0,0.0,0.0,0.0
6932.0,1425.0,151.0,0.05392857142857143,-1,0.0,19.0,0.0,0.0,0.0,0.0,0.0,0.0,0.0,0.0,0.0
7149.0,1425.0,164.0,0.05857142857142857,4,0.0,20.0,0.0,0.0,0.0,0.0,0.0,0.0,0.0,0.0,0.0
7330.0,1425.0,163.0,0.05821428571428571,0,0.0,19.0,0.0,0.0,0.0,0.0,0.0,0.0,0.0,0.0,0.0
7522.0,1425.0,165.0,0.05892857142857143,1,0.0,20.0,0.0,0.0,0.0,0.0,0.0,0.0,0.0,0.0,0.0
8695.0,1425.0,164.0,0.05857142857142857,-1,0.0,19.0,0.0,0.11,0.4,-0.33,84.0,12.0,6.0,0.0,0.0
8950.0,1425.0,163.0,0.05821428571428571,1,0.0,19.0,0.0,0.01,0.26,0.31,-25.0,-24.0,16.0,0.0,0.0
9550.0,1425.0,158.0,0.056428571428571425,3,0.0,19.0,0.0,0.08,0.29,0.5,7.0,32.0,20.0,0.0,0.0
10025.0,1425.0,149.0,0.053214285714285714,3,0.0,20.0,0.0,-0.09,0.43,0.98,-30.0,80.0,10.0,0.0,0.0
10510.0,1425.0,171.0,0.06107142857142857,-1,0.0,19.0,0.0,-0.32,0.57,1.68,-114.0,47.0,-52.0,0.0,0.0
11044.0,1425.0,159.0,0.05678571428571429,0,0.0,19.0,0.0,0.02,0.66,0.1,116.0,-43.0,-111.0,0.0,0.0
11560.0,1425.0,155.0,0.055357142857142855,-2,0.0,19.0,0.0,0.15,0.36,0.11,-61.0,-105.0,-16.0,0.0,0.0
12091.0,1425.0,161.0,0.0575,-1,0.0,19.0,0.0,-0.06,0.38,0.5,-23.0,-59.0,-44.0,0.0,0.0
12587.0,1425.0,154.0,0.055,-1,0.0,20.0,0.0,0.01,0.55,-0.03,104.0,-102.0,-4.0,0.0,0.0
13121.0,1425.0,155.0,0.055357142857142855,-2,0.0,19.0,0.0,0.09,0.7,0.96,-68.0,-121.0,8.0,0.0,0.0
13639.0,1425.0,161.0,0.0575,1,0.0,20.0,0.0,-0.23,0.82,0.27,25.0,-135.0,0.0,0.0,0.0
14147.0,1425.0,162.0,0.05785714285714286,3,0.0,19.0,0.0,-0.04,0.73,0.36,49.0,-126.0,15.0,0.0,0.0
14674.0,1425.0,159.0,0.05678571428571429,3,0.0,19.0,0.0,-0.05,0.71,1.07,-4.0,-123.0,-22.0,0.0,0.0
15417.0,1425.0,166.0,0.05928571428571429,-1,0.0,19.0,0.0,0.09,0.48,0.82,47.0,-91.0,-17.0,0.0,0.0
15733.0,1425.0,163.0,0.05821428571428571,0,0.0,19.0,0.0,-0.17,0.58,0.72,-66.0,-80.0,-1.0,0.0,0.0
16279.0,1425.0,153.0,0.054642857142857146,-1,0.0,19.0,0.0,-0.23,0.88,0.89,53.0,-139.0,14.0,0.0,0.0
16762.0,1425.0,157.0,0.05607142857142857,1,0.0,19.0,0.0,0.2,1.27,1.41,-17.0,-181.0,-30.0,0.0,0.0
17283.0,1425.0,159.0,0.05678571428571429,2,0.0,19.0,0.0,-0.28,1.38,0.93,-10.0,-163.0,-21.0,0.0,0.0
17813.0,1425.0,158.0,0.056428571428571425,0,0.0,19.0,0.0,-0.21,1.49,1.25,3.0,-201.0,-53.0,0.0,0.0
18313.0,1425.0,154.0,0.055,-2,0.0,19.0,0.0,0.19,1.34,1.39,53.0,-173.0,-59.0,0.0,0.0
18860.0,1425.0,160.0,0.05714285714285714,4,0.0,19.0,0.0,-0.22,0.85,1.69,-71.0,-133.0,-54.0,0.0,0.0
19366.0,1425.0,160.0,0.05714285714285714,1,0.0,19.0,0.0,-0.05,0.69,0.82,53.0,-88.0,-46.0,0.0,0.0
19888.0,1425.0,154.0,0.055,1,0.0,19.0,0.0,-0.24,0.46,1.8,-73.0,-118.0,-1.0,0.0,0.0
20398.0,1425.0,161.0,0.0575,-1,0.0,19.0,0.0,0.2,0.49,1.63,90.0,-65.0,-25.0,0.0,0.0
20928.0,1425.0,159.0,0.05678571428571429,1,0.0,19.0,0.0,-0.05,0.4,1.77,-114.0,-49.0,-30.0,0.0,0.0
21456.0,1425.0,164.0,0.05857142857142857,-3,0.0,19.0,0.0,-0.23,0.43,0.99,56.0,-56.0,-22.0,0.0,0.0
21950.0,1425.0,162.0,0.05785714285714286,3,0.0,19.0,0.0,0.04,0.46,2.44,7.0,-67.0,-32.0,0.0,0.0
22492.0,1425.0,164.0,0.05857142857142857,1,0.0,19.0,0.0,0.13,0.41,1.83,-16.0,-49.0,-33.0,0.0,0.0
23003.0,1425.0,166.0,0.05928571428571429,1,0.0,19.0,0.0,-0.28,0.58,2.07,-61.0,-62.0,-26.0,0.0,0.0
23541.0,1425.0,165.0,0.05892857142857143,0,0.0,19.0,0.0,0.09,0.62,2.24,46.0,-58.0,-56.0,0.0,0.0
24056.0,1425.0,157.0,0.05607142857142857,0,0.0,19.0,0.0,-0.02,0.14,2.28,-40.0,-19.0,-110.0,0.0,0.0
24572.0,1425.0,147.0,0.0525,-1,0.0,19.0,0.0,-0.17,-0.13,1.83,1.0,9.0,-30.0,0.0,0.0
25089.0,1425.0,156.0,0.055714285714285716,1,0.0,19.0,0.0,0.13,-0.28,1.97,5.0,17.0,-5.0,0.0,0.0
25620.0,1425.0,156.0,0.055714285714285716,-2,0.0,19.0,0.0,-0.06,-0.43,2.25,-5.0,22.0,1.0,0.0,0.0
26161.0,1425.0,162.0,0.05785714285714286,-1,0.0,19.0,0.0,0.22,-0.42,2.17,14.0,39.0,0.0,0.0,0.0
26652.0,1425.0,166.0,0.05928571428571429,3,0.0,19.0,0.0,-0.18,-0.53,2.41,-64.0,25.0,-2.0,0.0,0.0
27165.0,1425.0,168.0,0.06,-3,0.0,19.0,0.0,0.01,-0.29,2.29,23.0,13.0,-3.0,0.0,0.0
27675.0,1425.0,163.0,0.05821428571428571,0,0.0,19.0,0.0,0.11,0.16,2.65,5.0,-24.0,-11.0,0.0,0.0
28198.0,1425.0,162.0,0.05785714285714286,-2,0.0,19.0,0.0,-0.35,0.56,2.39,-46.0,-79.0,4.0,0.0,0.0
28722.0,1425.0,172.0,0.06142857142857143,4,0.0,19.0,0.0,0.22,0.85,2.67,26.0,-142.0,2.0,0.0,0.0
29248.0,1425.0,160.0,0.05714285714285714,4,0.0,19.0,0.0,-0.28,1.06,2.47,0.0,-141.0,1.0,0.0,0.0
29882.0,1425.0,162.0,0.05785714285714286,-1,0.0,19.0,0.0,0.01,1.17,2.9,29.0,-159.0,-12.0,0.0,0.0
30356.0,1425.0,149.0,0.053214285714285714,-1,0.0,20.0,0.0,0.0,1.19,3.22,32.0,-160.0,7.0,0.0,0.0
30904.0,1425.0,156.0,0.055714285714285716,-2,0.0,20.0,0.0,-0.4,1.22,2.52,-66.0,-150.0,2.0,0.0,0.0
31310.0,1425.0,164.0,0.05857142857142857,1,0.0,19.0,0.0,0.17,1.0,2.96,88.0,-142.0,-10.0,0.0,0.0
31913.0,1425.0,159.0,0.05678571428571429,-3,0.0,19.0,0.0,-0.22,0.65,3.14,-59.0,-72.0,2.0,0.0,0.0
32352.0,1425.0,158.0,0.056428571428571425,0,0.0,19.0,0.0,-0.08,0.44,3.4,37.0,-22.0,16.0,0.0,0.0
32887.0,1425.0,161.0,0.0575,-2,0.0,19.0,0.0,-0.02,0.36,2.8,80.0,-20.0,-20.0,0.0,0.0
33386.0,1425.0,163.0,0.05821428571428571,1,0.0,19.0,0.0,-0.27,0.29,3.15,-4.0,-37.0,-4.0,0.0,0.0
33945.0,1425.0,153.0,0.054642857142857146,0,0.0,19.0,0.0,-0.12,0.29,3.99,-27.0,26.0,4.0,0.0,0.0
34482.0,1425.0,149.0,0.053214285714285714,0,0.0,19.0,0.0,-0.14,0.26,2.92,7.0,5.0,28.0,0.0,0.0
34966.0,1425.0,161.0,0.0575,0,0.0,19.0,0.0,-0.04,0.12,3.9,44.0,-13.0,8.0,0.0,0.0
35483.0,1425.0,158.0,0.056428571428571425,1,0.0,19.0,0.0,-0.03,0.01,3.32,21.0,55.0,-15.0,0.0,0.0
36002.0,1425.0,162.0,0.05785714285714286,1,0.0,19.0,0.0,-0.31,-0.25,3.86,-70.0,53.0,-5.0,0.0,0.0
36516.0,1425.0,153.0,0.054642857142857146,1,0.0,19.0,0.0,-0.11,-0.41,3.32,49.0,91.0,-20.0,0.0,0.0
37032.0,1425.0,164.0,0.05857142857142857,2,0.0,19.0,0.0,0.04,-0.87,3.64,-5.0,119.0,-28.0,0.0,0.0
37734.0,1425.0,161.0,0.0575,1,0.0,19.0,0.0,0.13,-1.4,3.46,-18.0,160.0,-12.0,0.0,0.0
38077.0,1425.0,153.0,0.054642857142857146,1,0.0,19.0,0.0,-0.01,-1.61,3.62,-20.0,244.0,-47.0,0.0,0.0
38603.0,1425.0,164.0,0.05857142857142857,-1,0.0,19.0,0.0,0.05,-2.15,3.59,34.0,266.0,-30.0,0.0,0.0
39105.0,1425.0,168.0,0.06,1,0.0,19.0,0.0,0.11,-2.68,3.62,-21.0,340.0,2.0,0.0,0.0
39653.0,1425.0,157.0,0.05607142857142857,4,0.0,19.0,0.0,0.05,-2.89,3.2,21.0,424.0,121.0,0.0,0.0
40152.0,1425.0,160.0,0.05714285714285714,3,0.0,20.0,0.0,0.18,-3.21,4.77,-76.0,500.0,-158.0,0.0,0.0
40660.0,1425.0,167.0,0.05964285714285714,1,0.0,19.0,0.0,0.17,-3.44,3.78,43.0,546.0,-58.0,0.0,0.0
41225.0,1425.0,155.0,0.055357142857142855,-1,0.0,19.0,0.0,0.32,-4.08,4.31,-131.0,549.0,67.0,0.0,0.0
41717.0,1425.0,158.0,0.056428571428571425,3,0.0,19.0,0.0,0.17,-4.61,3.42,54.0,662.0,4.0,0.0,0.0
42223.0,1425.0,155.0,0.055357142857142855,1,0.0,19.0,0.0,0.54,-5.31,4.1,-55.0,683.0,28.0,0.0,0.0
42754.0,1425.0,168.0,0.06,1,0.0,19.0,0.0,0.17,-6.12,3.37,-29.0,738.0,30.0,0.0,0.0
43328.0,1425.0,169.0,0.06035714285714286,3,0.0,20.0,0.0,0.22,-6.29,2.91,-10.0,897.0,0.0,0.0,0.0
43778.0,1425.0,159.0,0.05678571428571429,-1,0.0,19.0,0.0,0.75,-6.53,4.05,-48.0,850.0,-16.0,0.0,0.0
44315.0,1425.0,167.0,0.05964285714285714,0,0.0,19.0,0.0,0.34,-6.46,4.45,-99.0,832.0,21.0,0.0,0.0
44825.0,1425.0,157.0,0.05607142857142857,-1,0.0,19.0,0.0,0.35,-6.03,3.62,-11.0,856.0,-16.0,0.0,0.0
45356.0,1425.0,166.0,0.05928571428571429,-1,0.0,19.0,0.0,0.3,-5.68,4.35,-53.0,731.0,12.0,0.0,0.0
45887.0,1425.0,157.0,0.05607142857142857,2,0.0,19.0,0.0,0.27,-4.67,4.18,-7.0,667.0,-3.0,0.0,0.0
46434.0,1425.0,171.0,0.06107142857142857,0,0.0,19.0,0.0,0.23,-4.0,4.11,-27.0,545.0,8.0,0.0,0.0
46910.0,1425.0,155.0,0.055357142857142855,0,0.0,19.0,0.0,-0.03,-3.33,4.39,-61.0,451.0,-6.0,0.0,0.0
47451.0,1425.0,157.0,0.05607142857142857,2,0.0,19.0,0.0,0.16,-2.63,4.02,11.0,353.0,9.0,0.0,0.0
47942.0,1425.0,151.0,0.05392857142857143,1,0.0,19.0,0.0,0.14,-1.95,4.79,-19.0,261.0,-28.0,0.0,0.0
48468.0,1425.0,146.0,0.052142857142857144,0,0.0,19.0,0.0,-0.28,-1.53,3.67,-7.0,232.0,7.0,0.0,0.0
48982.0,1425.0,155.0,0.055357142857142855,-1,0.0,19.0,0.0,-0.01,-1.21,4.62,15.0,89.0,-28.0,0.0,0.0
49505.0,1425.0,161.0,0.0575,-2,0.0,19.0,0.0,0.02,-0.06,4.42,71.0,-161.0,349.0,0.0,0.0
50023.0,1425.0,164.0,0.05857142857142857,-1,0.0,19.0,0.0,-0.78,3.7,4.67,-27.0,-550.0,2.0,0.0,0.0
50539.0,1425.0,166.0,0.05928571428571429,0,0.0,19.0,0.0,-0.28,5.0,4.34,228.0,-668.0,-11.0,0.0,0.0
51063.0,1425.0,165.0,0.05892857142857143,4,0.0,19.0,0.0,-0.52,4.68,5.51,-89.0,-654.0,29.0,0.0,0.0
51601.0,1425.0,160.0,0.05714285714285714,-1,0.0,19.0,0.0,-0.46,4.1,4.93,98.0,-535.0,-29.0,0.0,0.0
52110.0,1425.0,162.0,0.05785714285714286,0,0.0,19.0,0.0,-0.19,3.04,4.36,78.0,-419.0,-15.0,0.0,0.0
52623.0,1425.0,145.0,0.05178571428571429,1,0.0,19.0,0.0,-0.43,2.05,5.49,-56.0,-323.0,-1.0,0.0,0.0
53185.0,1425.0,161.0,0.0575,0,0.0,19.0,0.0,-0.25,1.15,4.02,126.0,-167.0,-62.0,0.0,0.0
53660.0,1425.0,157.0,0.05607142857142857,-1,0.0,19.0,0.0,0.12,0.49,5.91,-73.0,-93.0,-19.0,0.0,0.0
54251.0,1425.0,155.0,0.055357142857142855,3,0.0,19.0,0.0,-0.4,-0.14,4.37,21.0,6.0,4.0,0.0,0.0
54718.0,1425.0,162.0,0.05785714285714286,-1,0.0,19.0,0.0,0.09,-0.45,5.77,78.0,34.0,32.0,0.0,0.0
55226.0,1425.0,153.0,0.054642857142857146,0,0.0,19.0,0.0,0.05,-0.84,4.47,1.0,99.0,3.0,0.0,0.0
55771.0,1425.0,151.0,0.05392857142857143,1,0.0,19.0,0.0,-0.17,-0.81,6.0,-111.0,106.0,-71.0,0.0,0.0
56514.0,1425.0,162.0,0.05785714285714286,0,0.3,22.0,2.0,-0.05,-1.1,4.55,148.0,63.0,-15.0,0.0,0.0
56777.0,1425.0,154.0,0.055,-1,0.15,23.0,1.0,0.09,-1.09,5.46,-27.0,11.0,-46.0,0.0,-2.8560095200317333e-05
57311.0,1425.0,157.0,0.05607142857142857,-1,0.3,23.0,2.0,-0.1,-1.4,3.57,68.0,33.0,-23.0,0.0,-5.7120190400634666e-05
57824.0,1425.0,158.0,0.056428571428571425,-1,0.3,23.0,2.0,0.06,-2.08,5.36,-135.0,122.0,-59.0,0.0,-5.7120190400634666e-05
58365.0,1425.0,330.0,0.11785714285714285,-170,1.05,23.0,7.0,0.13,-2.63,3.74,176.0,175.0,-5.0,0.0,-0.03398651328837764
58881.0,1425.0,345.0,0.12321428571428572,-210,1.65,23.0,11.0,0.13,-2.82,5.83,-232.0,367.0,-79.0,0.0,-0.06597381991273303
59396.0,1425.0,406.0,0.145,-289,2.1,22.0,14.0,-0.07,-3.13,3.79,97.0,301.0,-89.0,0.0,-0.11555414518048396
59952.0,1425.0,426.0,0.15214285714285714,-345,2.25,23.0,15.0,0.43,-3.13,5.59,-39.0,376.0,-81.0,0.0,-0.14779849266164222
60436.0,1425.0,427.0,0.1525,-348,2.25,23.0,15.0,-0.03,-3.31,4.6,-42.0,313.0,-152.0,0.0,-0.14908369694565649
60958.0,1425.0,443.0,0.15821428571428572,-359,2.4,23.0,16.0,0.26,-3.57,4.78,-68.0,418.0,-88.0,0.0,-0.16404918683062275
61479.0,1425.0,443.0,0.15821428571428572,-367,2.4,23.0,16.0,0.3,-3.98,5.35,-60.0,371.0,-88.0,0.0,-0.16770487901626335
62019.0,1425.0,448.0,0.16,-367,2.6999999999999997,23.0,18.0,0.1,-4.05,4.53,38.0,449.0,-146.0,0.0,-0.1886679888932963
62522.0,1425.0,449.0,0.16035714285714286,-371,2.85,23.0,19.0,0.21,-4.41,4.96,-59.0,481.0,-140.0,0.0,-0.2013201110670369
63026.0,1425.0,442.0,0.15785714285714286,-361,2.85,23.0,19.0,0.22,-4.83,4.82,44.0,545.0,-83.0,0.0,-0.1958936929789766
63628.0,1425.0,432.0,0.15428571428571428,-369,1.95,23.0,13.0,0.14,-5.2,4.97,-50.0,487.0,25.0,0.0,-0.13700277667592226
64094.0,1425.0,153.0,0.054642857142857146,0,0.15,23.0,1.0,0.19,-5.34,4.91,0.0,509.0,40.0,0.0,0.0
64583.0,1425.0,163.0,0.05821428571428571,2,0.3,23.0,2.0,0.49,-4.99,5.66,72.0,528.0,54.0,0.0,0.00011424038080126933
65112.0,1425.0,158.0,0.056428571428571425,1,0.3,23.0,2.0,-0.2,-4.22,6.83,-198.0,560.0,20.0,0.0,5.7120190400634666e-05
65715.0,1425.0,154.0,0.055,1,0.15,23.0,1.0,0.41,-3.48,5.88,101.0,521.0,58.0,0.0,2.8560095200317333e-05
66162.0,1425.0,154.0,0.055,1,0.3,23.0,2.0,0.23,-3.53,7.63,-93.0,527.0,-52.0,0.0,5.7120190400634666e-05
66669.0,1425.0,157.0,0.05607142857142857,1,0.3,23.0,2.0,0.04,-2.7,7.8,-33.0,588.0,0.0,0.0,5.7120190400634666e-05
67200.0,1425.0,155.0,0.055357142857142855,1,0.3,23.0,2.0,0.4,-1.48,9.09,-16.0,577.0,36.0,0.0,5.7120190400634666e-05
67719.0,1425.0,163.0,0.05821428571428571,-1,0.3,23.0,2.0,-0.53,-0.4,10.62,-260.0,471.0,-10.0,0.0,-5.7120190400634666e-05
68256.0,1425.0,153.0,0.054642857142857146,-1,0.15,23.0,1.0,-0.17,1.22,10.3,184.0,391.0,-16.0,0.0,-2.8560095200317333e-05
68748.0,1425.0,157.0,0.05607142857142857,1,0.3,23.0,2.0,-0.38,1.87,8.48,-187.0,-21.0,9.0,0.0,5.7120190400634666e-05
69263.0,1425.0,150.0,0.05357142857142857,-1,0.3,23.0,2.0,-0.22,2.07,6.98,150.0,-117.0,2.0,0.0,-5.7120190400634666e-05
69786.0,1425.0,149.0,0.053214285714285714,-4,0.3,23.0,2.0,0.12,1.47,7.71,-61.0,-159.0,100.0,0.0,-0.00022848076160253867
70317.0,1425.0,157.0,0.05607142857142857,0,0.3,23.0,2.0,-0.71,1.33,6.56,49.0,-72.0,36.0,0.0,0.0
70942.0,1425.0,166.0,0.05928571428571429,-2,0.3,23.0,2.0,0.52,1.35,8.37,21.0,-137.0,32.0,0.0,-0.00011424038080126933
71345.0,1425.0,160.0,0.05714285714285714,0,0.15,23.0,1.0,-0.79,1.14,7.99,-63.0,54.0,-88.0,0.0,0.0
71858.0,1425.0,160.0,0.05714285714285714,1,0.3,23.0,2.0,0.03,1.65,9.34,129.0,48.0,-76.0,0.0,5.7120190400634666e-05
72385.0,1425.0,158.0,0.056428571428571425,0,0.3,23.0,2.0,-0.43,1.46,7.65,-132.0,-183.0,0.0,0.0,0.0
72896.0,1425.0,160.0,0.05714285714285714,-3,0.15,23.0,1.0,-0.2,0.83,6.8,171.0,-131.0,-20.0,0.0,-8.568028560095199e-05
73428.0,1425.0,158.0,0.056428571428571425,-2,0.3,23.0,2.0,0.5,0.3,7.99,-105.0,20.0,0.0,0.0,-0.00011424038080126933
73946.0,1425.0,157.0,0.05607142857142857,-2,0.3,23.0,2.0,-0.76,-0.45,8.27,84.0,229.0,10.0,0.0,-0.00011424038080126933
74458.0,1425.0,162.0,0.05785714285714286,2,0.3,23.0,2.0,0.44,0.18,9.34,-22.0,275.0,-139.0,0.0,0.00011424038080126933
74982.0,1425.0,160.0,0.05714285714285714,0,0.3,23.0,2.0,-0.65,0.56,8.68,16.0,-1.0,55.0,0.0,0.0
75501.0,1425.0,157.0,0.05607142857142857,-3,0.15,23.0,1.0,-0.02,1.76,6.52,92.0,-43.0,173.0,0.0,-8.568028560095199e-05
76014.0,1425.0,164.0,0.05857142857142857,1,0.3,23.0,2.0,-0.37,2.85,9.9,-22.0,-231.0,222.0,0.0,5.7120190400634666e-05
76534.0,1425.0,157.0,0.05607142857142857,0,0.3,23.0,2.0,-1.32,4.02,7.62,-14.0,-328.0,148.0,0.0,0.0
77054.0,1425.0,162.0,0.05785714285714286,0,0.3,23.0,2.0,0.77,4.34,7.03,216.0,-865.0,19.0,0.0,0.0
77572.0,1425.0,159.0,0.05678571428571429,-1,0.3,23.0,2.0,-1.1,3.55,5.91,-43.0,-628.0,-56.0,0.0,-5.7120190400634666e-05
78090.0,1425.0,155.0,0.055357142857142855,2,0.3,23.0,2.0,0.55,1.83,7.92,40.0,-437.0,-68.0,0.0,0.00011424038080126933
78621.0,1425.0,154.0,0.055,-3,0.3,23.0,2.0,-0.48,0.94,6.88,90.0,-194.0,13.0,0.0,-0.00017136057120190399
79135.0,1425.0,156.0,0.055714285714285716,-1,0.3,23.0,2.0,0.02,-0.1,8.98,-165.0,0.0,-109.0,0.0,-5.7120190400634666e-05
79666.0,1425.0,161.0,0.0575,-1,0.3,23.0,2.0,0.01,-1.18,7.25,156.0,0.0,44.0,0.0,-5.7120190400634666e-05
80183.0,1425.0,161.0,0.0575,0,0.3,23.0,2.0,-0.03,-1.22,7.27,-69.0,207.0,-67.0,0.0,0.0
80696.0,1425.0,165.0,0.05892857142857143,-1,0.3,23.0,2.0,0.12,-1.92,8.88,-58.0,138.0,-16.0,0.0,-5.7120190400634666e-05
81217.0,1425.0,161.0,0.0575,0,0.3,23.0,2.0,0.06,-2.04,6.7,55.0,292.0,-55.0,0.0,0.0
81728.0,1425.0,158.0,0.056428571428571425,3,0.15,23.0,1.0,0.08,-2.27,9.48,-150.0,172.0,-7.0,0.0,8.568028560095199e-05
82355.0,1425.0,157.0,0.05607142857142857,2,0.3,23.0,2.0,0.08,-2.07,6.4,302.0,323.0,4.0,0.0,0.00011424038080126933
82789.0,1425.0,163.0,0.05821428571428571,2,0.3,23.0,2.0,0.01,-2.08,9.7,-328.0,197.0,-8.0,0.0,0.00011424038080126933
83288.0,1425.0,160.0,0.05714285714285714,1,0.3,23.0,2.0,0.2,-1.85,6.91,319.0,264.0,-65.0,0.0,5.7120190400634666e-05
83833.0,1425.0,156.0,0.055714285714285716,-3,0.15,23.0,1.0,0.06,-1.82,9.56,-256.0,206.0,2.0,0.0,-8.568028560095199e-05
84395.0,1425.0,155.0,0.055357142857142855,0,0.3,23.0,2.0,-0.42,-1.51,6.99,120.0,251.0,-100.0,0.0,0.0
84883.0,1425.0,157.0,0.05607142857142857,1,0.3,23.0,2.0,0.95,-1.6,10.35,-66.0,69.0,128.0,0.0,5.7120190400634666e-05
85394.0,1425.0,158.0,0.056428571428571425,-3,0.15,23.0,1.0,-1.08,-1.04,5.79,259.0,342.0,-101.0,0.0,-8.568028560095199e-05
85895.0,1425.0,161.0,0.0575,-1,0.15,23.0,1.0,1.15,-1.37,12.58,-523.0,100.0,-3.0,0.0,-2.8560095200317333e-05
86428.0,1425.0,158.0,0.056428571428571425,0,0.3,23.0,2.0,-0.84,-0.99,4.48,811.0,139.0,-82.0,0.0,0.0
86985.0,1425.0,162.0,0.05785714285714286,0,0.0,20.0,0.0,0.49,-1.57,11.48,-841.0,163.0,34.0,0.0,0.0
87475.0,1425.0,168.0,0.06,-3,0.3,23.0,2.0,-0.11,-1.42,7.36,466.0,120.0,-68.0,0.0,-0.00017136057120190399
87979.0,1425.0,173.0,0.061785714285714284,2,0.3,23.0,2.0,0.22,-1.88,9.85,-151.0,194.0,11.0,0.0,0.00011424038080126933
88496.0,1425.0,334.0,0.11928571428571429,184,1.2,23.0,8.0,-0.09,-1.41,8.9,41.0,299.0,2.0,0.0,0.04204046013486711
89268.0,1425.0,520.0,0.18571428571428572,431,2.85,23.0,19.0,0.21,-1.71,10.16,-75.0,278.0,168.0,0.0,0.23387861959539866
89550.0,1425.0,514.0,0.18357142857142858,443,3.15,22.0,21.0,-0.39,-1.08,8.84,-117.0,366.0,120.0,0.0,0.26569456564855215
90056.0,1425.0,535.0,0.19107142857142856,463,3.75,23.0,25.0,0.49,-1.23,11.17,-5.0,36.0,247.0,0.0,0.33058310194367313
90575.0,1425.0,524.0,0.18714285714285714,479,3.4499999999999997,22.0,23.0,-0.79,-0.1,7.06,-26.0,265.0,84.0,0.0,0.31464656882189607
91099.0,1425.0,371.0,0.1325,364,2.1,23.0,14.0,0.9,-0.36,13.16,-249.0,-56.0,45.0,0.0,0.14554224514081715
91608.0,1425.0,417.0,0.14892857142857144,320,2.25,23.0,15.0,-0.85,0.95,5.18,556.0,135.0,-72.0,0.0,0.1370884569615232
92141.0,1425.0,477.0,0.17035714285714285,371,3.0,23.0,20.0,0.59,0.5,15.33,-696.0,-89.0,36.0,0.0,0.21191590638635463
92660.0,1425.0,473.0,0.16892857142857143,393,2.4,23.0,16.0,-0.63,1.45,5.35,604.0,-27.0,-32.0,0.0,0.17958587861959538
93193.0,1425.0,489.0,0.17464285714285716,406,3.0,22.0,20.0,0.39,0.28,14.67,-781.0,-121.0,96.0,0.0,0.23190797302657676
93747.0,1425.0,493.0,0.17607142857142857,422,2.85,23.0,19.0,-0.57,0.84,4.86,704.0,167.0,-6.0,0.0,0.22899484331614442
94238.0,1425.0,495.0,0.1767857142857143,425,3.15,23.0,21.0,0.74,-0.16,15.97,-905.0,27.0,58.0,0.0,0.25489884966283216
94892.0,1425.0,662.0,0.23642857142857143,609,5.25,23.0,35.0,-0.5,0.11,6.56,811.0,164.0,11.0,0.0,0.608758429194764
95289.0,1425.0,699.0,0.24964285714285714,660,6.1499999999999995,23.0,41.0,0.67,-1.07,13.93,-738.0,271.0,261.0,0.0,0.7728361761205871
95810.0,1425.0,745.0,0.26607142857142857,735,7.199999999999999,23.0,48.0,-0.35,-2.03,8.44,379.0,427.0,156.0,0.0,1.0076001586671954
96334.0,1425.0,751.0,0.26821428571428574,758,7.35,22.0,49.0,0.96,-2.52,11.97,-300.0,571.0,44.0,0.0,1.0607790559301864
96842.0,1425.0,703.0,0.25107142857142856,746,6.3,22.0,42.0,0.11,-3.46,10.03,10.0,550.0,-291.0,0.0,0.8948449028163427
97350.0,1425.0,158.0,0.056428571428571425,159,0.3,22.0,2.0,0.58,-3.31,10.23,-192.0,625.0,-102.0,0.0,0.009082110273700912
97844.0,1425.0,188.0,0.06714285714285714,226,0.44999999999999996,23.0,3.0,0.3,-3.23,10.48,-25.0,527.0,-139.0,0.0,0.019363744545815152
98365.0,1425.0,156.0,0.055714285714285716,-3,0.3,23.0,2.0,0.05,-2.98,10.08,16.0,450.0,-141.0,0.0,-0.00017136057120190399
98885.0,1425.0,158.0,0.056428571428571425,3,0.3,22.0,2.0,0.04,-2.16,10.61,-358.0,406.0,-369.0,0.0,0.00017136057120190399
99405.0,1425.0,167.0,0.05964285714285714,-3,0.3,23.0,2.0,-0.06,-1.92,7.63,462.0,207.0,-346.0,0.0,-0.00017136057120190399
99924.0,1425.0,679.0,0.2425,-547,4.6499999999999995,23.0,31.0,0.09,-1.51,10.51,-119.0,85.0,-287.0,0.0,-0.484293534311781
100444.0,1425.0,717.0,0.25607142857142856,-622,6.3,22.0,42.0,0.15,-1.72,10.77,69.0,305.0,-575.0,0.0,-0.74610392701309
100964.0,1425.0,880.0,0.3142857142857143,-823,9.45,23.0,63.0,-0.1,-2.8,8.95,-149.0,524.0,-616.0,0.0,-1.4808123760412535
101483.0,1425.0,822.0,0.2935714285714286,-831,9.6,23.0,64.0,0.4,-4.23,10.89,49.0,631.0,-554.0,0.0,-1.518940103133677
102003.0,1425.0,738.0,0.26357142857142857,-814,8.7,22.0,58.0,0.21,-5.56,9.28,-77.0,639.0,-215.0,0.0,-1.3483792145973819
102523.0,1425.0,523.0,0.18678571428571428,-616,4.8,22.0,32.0,0.2,-6.71,8.81,-148.0,721.0,-179.0,0.0,-0.5629765965886553
103044.0,1425.0,545.0,0.19464285714285715,-509,3.4499999999999997,22.0,23.0,-0.03,-7.32,7.66,81.0,793.0,107.0,0.0,-0.334353034510115
103563.0,1425.0,555.0,0.1982142857142857,-511,3.9,23.0,26.0,0.26,-7.59,9.76,-47.0,732.0,-105.0,0.0,-0.3794494248314161
104084.0,1425.0,526.0,0.18785714285714286,-488,3.3,23.0,22.0,0.28,-7.46,9.13,3.0,776.0,90.0,0.0,-0.30662118207060685
104603.0,1425.0,517.0,0.18464285714285714,-475,3.3,23.0,22.0,0.21,-6.87,9.81,-259.0,803.0,-46.0,0.0,-0.2984529948433161
105123.0,1425.0,521.0,0.18607142857142858,-478,3.3,23.0,22.0,0.42,-6.99,7.91,295.0,764.0,-183.0,0.0,-0.30033796112653705
105643.0,1425.0,513.0,0.18321428571428572,-472,3.15,23.0,21.0,0.56,-7.55,10.08,-263.0,810.0,30.0,0.0,-0.2830876636255454
106163.0,1425.0,520.0,0.18571428571428572,-482,3.0,23.0,20.0,0.04,-7.61,9.51,113.0,760.0,42.0,0.0,-0.2753193177310591
106689.0,1425.0,306.0,0.10928571428571429,-459,2.85,23.0,19.0,0.14,-7.5,8.77,-596.0,675.0,126.0,0.0,-0.24907259024196748
107202.0,1425.0,159.0,0.05678571428571429,-1,0.3,23.0,2.0,0.55,-7.86,8.42,131.0,732.0,148.0,0.0,-5.7120190400634666e-05
107722.0,1425.0,163.0,0.05821428571428571,-3,0.3,23.0,2.0,0.48,-7.87,9.09,70.0,800.0,106.0,0.0,-0.00017136057120190399
108242.0,1425.0,224.0,0.08,1,1.5,23.0,10.0,-0.1,-6.97,9.98,-19.0,693.0,43.0,0.0,0.00028560095200317335
108761.0,1425.0,155.0,0.055357142857142855,1,0.15,23.0,1.0,0.14,-6.07,9.64,-209.0,670.0,75.0,0.0,2.8560095200317333e-05
109279.0,1425.0,172.0,0.06142857142857143,0,0.3,23.0,2.0,0.48,-6.23,8.67,78.0,662.0,71.0,0.0,0.0
109801.0,1425.0,159.0,0.05678571428571429,-1,0.3,23.0,2.0,0.61,-6.59,9.57,136.0,610.0,52.0,0.0,-5.7120190400634666e-05
110320.0,1425.0,165.0,0.05892857142857143,0,0.15,23.0,1.0,-0.23,-5.72,10.91,-152.0,611.0,48.0,0.0,0.0
110842.0,1425.0,168.0,0.06,2,0.3,23.0,2.0,0.22,-4.91,9.72,-88.0,532.0,49.0,0.0,0.00011424038080126933
111361.0,1425.0,167.0,0.05964285714285714,1,0.3,23.0,2.0,0.51,-5.18,8.92,-2.0,559.0,27.0,0.0,5.7120190400634666e-05
111881.0,1425.0,161.0,0.0575,0,0.3,23.0,2.0,0.54,-5.32,10.6,164.0,461.0,35.0,0.0,0.0
112402.0,1425.0,169.0,0.06035714285714286,0,0.3,23.0,2.0,-0.65,-4.13,10.95,-228.0,455.0,12.0,0.0,0.0
113103.0,1425.0,156.0,0.055714285714285716,0,0.3,23.0,2.0,0.46,-3.42,9.72,19.0,349.0,44.0,0.0,0.0
113462.0,1425.0,162.0,0.05785714285714286,-2,0.3,23.0,2.0,0.63,-3.55,10.06,-39.0,356.0,-6.0,0.0,-0.00011424038080126933
113969.0,1425.0,160.0,0.05714285714285714,0,0.3,23.0,2.0,-0.05,-3.59,10.61,130.0,228.0,-10.0,0.0,0.0
114494.0,1425.0,166.0,0.05928571428571429,-2,0.3,23.0,2.0,-0.53,-2.37,11.14,-203.0,243.0,-42.0,0.0,-0.00011424038080126933
115024.0,1425.0,159.0,0.05678571428571429,-2,0.44999999999999996,23.0,3.0,0.61,-2.34,9.36,122.0,137.0,71.0,0.0,-0.00017136057120190399
115538.0,1425.0,174.0,0.062142857142857146,2,0.3,23.0,2.0,0.56,-2.79,10.75,52.0,180.0,-30.0,0.0,0.00011424038080126933
116069.0,1425.0,167.0,0.05964285714285714,1,0.15,23.0,1.0,-0.73,-2.45,10.74,85.0,120.0,8.0,0.0,2.8560095200317333e-05
116590.0,1425.0,176.0,0.06285714285714286,1,0.15,23.0,1.0,-0.13,-1.46,11.65,-314.0,88.0,-2.0,0.0,2.8560095200317333e-05
117096.0,1425.0,170.0,0.060714285714285714,2,0.3,23.0,2.0,0.58,-1.84,9.04,174.0,158.0,11.0,0.0,0.00011424038080126933
117629.0,1425.0,166.0,0.05928571428571429,0,0.3,23.0,2.0,0.42,-2.55,11.67,56.0,94.0,-15.0,0.0,0.0
118160.0,1425.0,171.0,0.06107142857142857,0,0.3,23.0,2.0,-0.69,-1.53,11.68,82.0,110.0,-9.0,0.0,0.0
118649.0,1425.0,175.0,0.0625,1,0.3,23.0,2.0,-0.4,-0.62,11.19,-265.0,-35.0,-12.0,0.0,5.7120190400634666e-05
119165.0,1425.0,172.0,0.06142857142857143,-2,0.3,23.0,2.0,0.88,-0.82,9.64,9.0,10.0,8.0,0.0,-0.00011424038080126933
119690.0,1425.0,165.0,0.05892857142857143,1,0.3,23.0,2.0,0.33,-1.79,11.03,395.0,-15.0,-39.0,0.0,5.7120190400634666e-05
120237.0,1425.0,160.0,0.05714285714285714,1,0.3,23.0,2.0,-0.92,-0.88,13.47,-264.0,-77.0,-20.0,0.0,5.7120190400634666e-05
120736.0,1425.0,175.0,0.0625,1,0.3,23.0,2.0,-0.32,0.23,9.59,-25.0,-52.0,-13.0,0.0,5.7120190400634666e-05
121256.0,1425.0,171.0,0.06107142857142857,-1,0.3,23.0,2.0,0.96,-0.91,11.12,-31.0,-55.0,-46.0,0.0,-5.7120190400634666e-05
121771.0,1425.0,173.0,0.061785714285714284,-1,0.3,23.0,2.0,0.04,-1.58,11.28,325.0,39.0,-35.0,0.0,-5.7120190400634666e-05
122284.0,1425.0,173.0,0.061785714285714284,-2,0.3,23.0,2.0,-0.79,-0.57,13.02,-291.0,-27.0,-11.0,0.0,-0.00011424038080126933
122818.0,1425.0,170.0,0.060714285714285714,1,0.3,23.0,2.0,0.02,-0.08,10.63,119.0,-125.0,-23.0,0.0,5.7120190400634666e-05
123329.0,1425.0,173.0,0.061785714285714284,-2,0.3,23.0,2.0,0.34,-0.52,10.91,-127.0,-38.0,-59.0,0.0,-0.00011424038080126933
123982.0,1425.0,166.0,0.05928571428571429,0,0.3,23.0,2.0,0.43,-0.86,12.27,256.0,-120.0,-22.0,0.0,0.0
124375.0,1425.0,176.0,0.06285714285714286,1,0.3,23.0,2.0,-1.02,-0.39,11.78,-172.0,-4.0,-46.0,0.0,5.7120190400634666e-05
124899.0,1425.0,168.0,0.06,1,0.3,23.0,2.0,0.08,-0.22,12.43,41.0,-123.0,23.0,0.0,5.7120190400634666e-05
125413.0,1425.0,172.0,0.06142857142857143,0,0.3,23.0,2.0,0.27,-0.09,11.41,99.0,-49.0,-14.0,0.0,0.0
125943.0,1425.0,171.0,0.06107142857142857,0,0.3,23.0,2.0,-0.05,-0.46,12.01,-94.0,-87.0,-73.0,0.0,0.0
126449.0,1425.0,167.0,0.05964285714285714,2,0.3,23.0,2.0,-0.18,-0.6,12.11,53.0,0.0,30.0,0.0,0.00011424038080126933
126986.0,1425.0,178.0,0.06357142857142857,1,0.15,23.0,1.0,-0.19,-0.52,12.67,14.0,-37.0,-26.0,0.0,2.8560095200317333e-05
127507.0,1425.0,170.0,0.060714285714285714,0,0.3,23.0,2.0,0.08,-0.33,12.32,-27.0,-90.0,33.0,0.0,0.0
128004.0,1425.0,173.0,0.061785714285714284,1,0.15,23.0,1.0,-0.08,-0.33,12.14,0.0,-32.0,-30.0,0.0,2.8560095200317333e-05
128534.0,1425.0,176.0,0.06285714285714286,2,0.3,23.0,2.0,-0.01,-0.74,12.1,72.0,-63.0,-20.0,0.0,0.00011424038080126933
129049.0,1425.0,176.0,0.06285714285714286,0,0.3,23.0,2.0,-0.25,-0.32,12.93,-30.0,-50.0,-23.0,0.0,0.0
129766.0,1425.0,167.0,0.05964285714285714,2,0.3,23.0,2.0,-0.21,-0.26,11.88,55.0,-40.0,-73.0,0.0,0.00011424038080126933
130089.0,1425.0,173.0,0.061785714285714284,1,0.3,23.0,2.0,0.42,-0.56,12.58,10.0,-58.0,-65.0,0.0,5.7120190400634666e-05
130656.0,1425.0,167.0,0.05964285714285714,-2,0.3,23.0,2.0,-0.54,-0.96,12.06,125.0,-76.0,15.0,0.0,-0.00011424038080126933
131135.0,1425.0,170.0,0.060714285714285714,-3,0.3,23.0,2.0,0.24,-0.55,12.57,-92.0,-59.0,0.0,0.0,-0.00017136057120190399
131645.0,1425.0,171.0,0.06107142857142857,-1,0.3,23.0,2.0,-0.12,-0.59,12.62,76.0,-23.0,-84.0,0.0,-5.7120190400634666e-05
132168.0,1425.0,170.0,0.060714285714285714,2,0.3,23.0,2.0,-0.02,-1.09,12.17,14.0,4.0,32.0,0.0,0.00011424038080126933
132699.0,1425.0,173.0,0.061785714285714284,0,0.3,23.0,2.0,0.01,-0.9,13.44,100.0,-11.0,-50.0,0.0,0.0
133206.0,1425.0,172.0,0.06142857142857143,-2,0.3,23.0,2.0,-0.31,-0.69,13.2,-191.0,-28.0,-33.0,0.0,-0.00011424038080126933
133752.0,1425.0,172.0,0.06142857142857143,1,0.3,23.0,2.0,0.35,-0.62,11.86,111.0,-1.0,11.0,0.0,5.7120190400634666e-05
134295.0,1425.0,168.0,0.06,1,0.15,23.0,1.0,-0.2,-1.13,12.81,81.0,-18.0,-23.0,0.0,2.8560095200317333e-05
134777.0,1425.0,172.0,0.06142857142857143,1,0.15,23.0,1.0,-0.04,-0.64,14.0,9.0,-74.0,-12.0,0.0,2.8560095200317333e-05
135398.0,1425.0,169.0,0.06035714285714286,0,0.15,23.0,1.0,-0.17,-0.09,12.55,7.0,-71.0,-45.0,0.0,0.0
135808.0,1425.0,177.0,0.06321428571428571,0,0.3,23.0,2.0,0.06,-0.49,12.5,-58.0,-80.0,-2.0,0.0,0.0
136352.0,1425.0,171.0,0.06107142857142857,-2,0.3,23.0,2.0,0.05,-0.8,13.0,151.0,-118.0,1.0,0.0,-0.00011424038080126933
136850.0,1425.0,166.0,0.05928571428571429,1,0.3,22.0,2.0,-0.4,-0.22,13.84,38.0,-74.0,-58.0,0.0,5.7120190400634666e-05
137384.0,1425.0,166.0,0.05928571428571429,-1,0.15,23.0,1.0,0.22,-0.07,13.69,-73.0,-151.0,-29.0,0.0,-2.8560095200317333e-05
137924.0,1425.0,167.0,0.05964285714285714,1,0.3,23.0,2.0,-0.2,-0.72,12.4,-106.0,-63.0,37.0,0.0,5.7120190400634666e-05
138425.0,1425.0,168.0,0.06,1,0.15,23.0,1.0,0.17,-0.85,12.96,285.0,-14.0,-92.0,0.0,2.8560095200317333e-05
138923.0,1425.0,169.0,0.06035714285714286,0,0.15,23.0,1.0,-0.35,-0.51,14.63,-97.0,-70.0,-5.0,0.0,0.0
139449.0,1425.0,169.0,0.06035714285714286,1,0.3,23.0,2.0,0.15,-0.63,13.71,-18.0,-76.0,-33.0,0.0,5.7120190400634666e-05
139966.0,1425.0,165.0,0.05892857142857143,-1,0.3,23.0,2.0,-0.07,-0.59,12.71,-139.0,-36.0,-33.0,0.0,-5.7120190400634666e-05
140481.0,1425.0,163.0,0.05821428571428571,1,0.3,23.0,2.0,-0.12,-1.0,13.21,268.0,-99.0,21.0,0.0,5.7120190400634666e-05
141023.0,1425.0,162.0,0.05785714285714286,-1,0.3,23.0,2.0,0.11,-0.71,14.1,83.0,2.0,-57.0,0.0,-5.7120190400634666e-05
141527.0,1425.0,169.0,0.06035714285714286,-2,0.3,23.0,2.0,0.04,-0.25,15.22,-280.0,-100.0,-23.0,0.0,-0.00011424038080126933
142062.0,1425.0,166.0,0.05928571428571429,0,0.3,23.0,2.0,-0.38,-0.46,12.38,-2.0,-90.0,-47.0,0.0,0.0
2924715.0,1425.0,168.0,0.06,-3,0.3,23.0,2.0,0.08,-0.64,13.75,249.0,-117.0,-23.0,0.0,-0.00017136057120190399
2925253.0,1425.0,212.0,0.07571428571428572,-1,0.8999999999999999,23.0,6.0,-0.05,-0.09,14.78,-64.0,-28.0,-54.0,0.0,-0.00017136057120190399
2925784.0,1425.0,279.0,0.09964285714285714,-101,1.5,23.0,10.0,-0.03,-0.31,15.07,-236.0,-160.0,-12.0,0.0,-0.028845696152320507
2926331.0,1425.0,382.0,0.13642857142857143,-245,1.95,23.0,13.0,-0.09,-0.1,13.21,309.0,-26.0,-112.0,0.0,-0.0909639032130107
2926806.0,1425.0,337.0,0.12035714285714286,-204,1.3499999999999999,23.0,9.0,-0.19,-0.74,14.14,199.0,-91.0,-35.0,0.0,-0.052436334787782625
2927381.0,1425.0,367.0,0.13107142857142856,-253,1.95,23.0,13.0,0.11,-0.84,15.31,-225.0,64.0,-26.0,0.0,-0.0939341531138437
2927968.0,1425.0,412.0,0.14714285714285713,-301,2.25,22.0,15.0,0.42,-1.15,13.7,255.0,41.0,-92.0,0.0,-0.12894882982943276
2928436.0,1425.0,408.0,0.1457142857142857,-306,2.1,23.0,14.0,-0.84,-1.52,15.06,-219.0,180.0,-73.0,0.0,-0.12235144783815947
2928914.0,1425.0,411.0,0.1467857142857143,-317,2.25,23.0,15.0,0.5,-1.89,13.89,192.0,147.0,-64.0,0.0,-0.13580325267750892
2929414.0,1425.0,446.0,0.15928571428571428,-353,2.6999999999999997,23.0,18.0,0.32,-2.96,14.6,-7.0,300.0,-154.0,0.0,-0.18147084490281631
2929943.0,1425.0,412.0,0.14714285714285713,-329,2.25,23.0,15.0,-0.26,-3.25,14.02,-124.0,324.0,-120.0,0.0,-0.14094406981356605
2930456.0,1425.0,420.0,0.15,-338,2.1,23.0,14.0,0.29,-4.16,14.35,210.0,443.0,13.0,0.0,-0.13514637048790162
2930970.0,1425.0,416.0,0.14857142857142858,-339,1.95,23.0,13.0,0.47,-4.77,14.24,-2.0,524.0,-114.0,0.0,-0.1258643395477985
2931599.0,1425.0,425.0,0.15178571428571427,-332,2.4,23.0,16.0,0.13,-5.23,14.81,-269.0,527.0,18.0,0.0,-0.15171122570408566
2932031.0,1425.0,423.0,0.15107142857142858,-334,2.1,23.0,14.0,0.03,-6.26,12.91,285.0,695.0,-60.0,0.0,-0.13354700515668388
2932509.0,1425.0,438.0,0.15642857142857142,-348,2.55,23.0,17.0,0.47,-7.0,14.67,-17.0,680.0,-74.0,0.0,-0.16896152320507735
2933046.0,1425.0,450.0,0.16071428571428573,-371,2.6999999999999997,23.0,18.0,0.37,-5.77,16.52,-153.0,698.0,-71.0,0.0,-0.19072431574771914
2933554.0,1425.0,474.0,0.1692857142857143,-397,2.6999999999999997,23.0,18.0,0.14,-5.14,14.34,-53.0,804.0,-46.0,0.0,-0.20409044030146767
2934120.0,1425.0,442.0,0.15785714285714286,-381,2.6999999999999997,23.0,18.0,0.14,-6.42,13.79,-87.0,607.0,-6.0,0.0,-0.19586513288377627
2934594.0,1425.0,457.0,0.1632142857142857,-384,2.55,23.0,17.0,0.65,-6.61,15.16,0.0,792.0,-40.0,0.0,-0.18644030146767154
2935132.0,1425.0,432.0,0.15428571428571428,-362,2.1,23.0,14.0,0.0,-6.62,14.12,164.0,740.0,-8.0,0.0,-0.14474256247520828
2935676.0,1425.0,430.0,0.15357142857142858,-356,1.95,23.0,13.0,0.38,-7.7,15.47,-571.0,731.0,-33.0,0.0,-0.13217612058706862
2936137.0,1425.0,432.0,0.15428571428571428,-360,2.1,23.0,14.0,0.48,-8.19,12.77,351.0,896.0,110.0,0.0,-0.14394287980959938
2936695.0,1425.0,434.0,0.155,-350,2.25,23.0,15.0,0.52,-8.26,15.1,-300.0,966.0,-72.0,0.0,-0.14994049980166602
2937264.0,1425.0,422.0,0.15071428571428572,-342,2.25,23.0,15.0,0.23,-8.75,13.87,174.0,865.0,15.0,0.0,-0.14651328837762792
2937762.0,1425.0,517.0,0.18464285714285714,-440,3.15,23.0,21.0,0.18,-8.9,15.78,-315.0,1129.0,-112.0,0.0,-0.2638952796509322
2938258.0,1425.0,537.0,0.19178571428571428,-473,3.4499999999999997,23.0,23.0,0.99,-8.38,15.19,-210.0,1126.0,-115.0,0.0,-0.31070527568425227
2938765.0,1425.0,620.0,0.22142857142857142,-562,4.6499999999999995,23.0,31.0,0.7,-9.89,14.83,33.0,1276.0,-172.0,0.0,-0.4975739785799286
2939260.0,1425.0,632.0,0.2257142857142857,-593,4.6499999999999995,23.0,31.0,0.62,-11.41,14.42,-83.0,1263.0,-52.0,0.0,-0.5250202300674336
2939837.0,1425.0,626.0,0.22357142857142856,-605,4.5,23.0,30.0,0.37,-10.73,17.03,-261.0,1490.0,-86.0,0.0,-0.5183657278857596
2940306.0,1425.0,629.0,0.22464285714285714,-612,4.8,23.0,32.0,0.51,-11.42,14.8,-56.0,1468.0,-19.0,0.0,-0.5593209044030146
2940832.0,1425.0,637.0,0.2275,-633,4.95,23.0,33.0,0.83,-14.14,12.88,135.0,1540.0,18.0,0.0,-0.5965918286394288
2941349.0,1425.0,629.0,0.22464285714285714,-635,4.8,23.0,32.0,1.51,-14.75,15.44,-254.0,1682.0,58.0,0.0,-0.5803411344704482
2941874.0,1425.0,626.0,0.22357142857142856,-626,4.6499999999999995,23.0,31.0,0.7,-13.4,17.22,107.0,1797.0,82.0,0.0,-0.5542372074573582
2942380.0,1425.0,620.0,0.22142857142857142,-608,4.8,23.0,32.0,0.21,-13.11,12.27,131.0,1560.0,-145.0,0.0,-0.555665212217374
2942954.0,1425.0,634.0,0.22642857142857142,-641,4.8,23.0,32.0,1.17,-14.21,16.01,-388.0,1670.0,-38.0,0.0,-0.5858246727489091
2943425.0,1425.0,589.0,0.21035714285714285,-603,4.2,23.0,28.0,0.89,-15.34,14.55,56.0,1748.0,170.0,0.0,-0.48220864736215796
2943965.0,1425.0,564.0,0.20142857142857143,-552,4.05,23.0,27.0,1.33,-15.26,12.38,-183.0,1723.0,45.0,0.0,-0.42565965886552953
2944516.0,1425.0,575.0,0.20535714285714285,-555,3.3,23.0,22.0,0.58,-16.12,17.01,-287.0,1823.0,144.0,0.0,-0.34871876239587457
2944995.0,1425.0,543.0,0.19392857142857142,-513,3.0,23.0,20.0,1.08,-15.04,13.05,185.0,1877.0,211.0,0.0,-0.29302657675525584
2945495.0,1425.0,545.0,0.19464285714285715,-510,3.4499999999999997,23.0,23.0,0.16,-15.43,15.77,-349.0,1736.0,226.0,0.0,-0.33500991669972235
2946031.0,1425.0,529.0,0.18892857142857142,-494,2.85,23.0,19.0,1.4,-15.44,13.85,192.0,1698.0,184.0,0.0,-0.26806505355017857
2946572.0,1425.0,510.0,0.18214285714285713,-480,3.0,23.0,20.0,0.71,-15.32,14.72,-263.0,1834.0,202.0,0.0,-0.2741769139230464
2947077.0,1425.0,504.0,0.18,-474,2.6999999999999997,23.0,18.0,1.53,-14.7,15.76,-2.0,1632.0,191.0,0.0,-0.24367473224910746
2947634.0,1425.0,487.0,0.17392857142857143,-443,2.6999999999999997,23.0,18.0,0.26,-13.77,15.27,-159.0,1743.0,6.0,0.0,-0.2277381991273304
2948118.0,1425.0,480.0,0.17142857142857143,-435,3.0,23.0,20.0,0.96,-13.39,14.88,81.0,1480.0,168.0,0.0,-0.24847282824276082
2948658.0,1425.0,494.0,0.17642857142857143,-433,3.0,23.0,20.0,0.17,-12.06,16.22,-248.0,1400.0,49.0,0.0,-0.24733042443474812
2949164.0,1425.0,502.0,0.1792857142857143,-439,2.85,23.0,19.0,0.79,-9.01,16.04,-131.0,1043.0,119.0,0.0,-0.23821975406584692
2949718.0,1425.0,488.0,0.1742857142857143,-430,3.0,23.0,20.0,0.4,-5.75,18.19,90.0,596.0,58.0,0.0,-0.24561681872272909
2950204.0,1425.0,457.0,0.1632142857142857,-421,2.55,23.0,17.0,0.46,-1.74,15.98,49.0,369.0,-54.0,0.0,-0.20440460134867114
2950716.0,1425.0,524.0,0.18714285714285714,-462,3.9,23.0,26.0,-0.72,0.6,17.55,73.0,-4.0,-158.0,0.0,-0.3430638635462118
2951243.0,1425.0,548.0,0.1957142857142857,-484,3.5999999999999996,23.0,24.0,-0.51,2.39,16.45,144.0,-396.0,-57.0,0.0,-0.33175406584688616
2951741.0,1425.0,548.0,0.1957142857142857,-496,3.4499999999999997,23.0,23.0,-0.55,4.48,18.52,-193.0,-703.0,-25.0,0.0,-0.3258135660452201
2952277.0,1425.0,516.0,0.18428571428571427,-476,3.15,23.0,21.0,-0.3,7.07,17.21,400.0,-553.0,-107.0,0.0,-0.28548671162237205
2952788.0,1425.0,549.0,0.19607142857142856,-505,3.4499999999999997,23.0,23.0,-1.1,7.98,18.48,-14.0,-960.0,43.0,0.0,-0.33172550575168586
2953306.0,1425.0,563.0,0.20107142857142857,-528,3.4499999999999997,23.0,23.0,-1.03,8.7,17.28,351.0,-1042.0,-47.0,0.0,-0.34683379611265375
2953891.0,1425.0,574.0,0.205,-544,3.75,23.0,25.0,-1.28,9.31,19.02,-169.0,-1063.0,-22.0,0.0,-0.38841729472431574
2954375.0,1425.0,572.0,0.2042857142857143,-533,4.05,23.0,27.0,-0.96,10.03,17.62,157.0,-1134.0,-71.0,0.0,-0.4110083300277667
2954879.0,1425.0,586.0,0.2092857142857143,-565,3.9,23.0,26.0,-1.25,10.59,18.8,206.0,-1143.0,23.0,0.0,-0.41954779849266166
2955395.0,1425.0,586.0,0.2092857142857143,-562,4.05,23.0,27.0,-1.46,11.09,18.96,195.0,-1165.0,0.0,0.0,-0.4333708845696152
2955907.0,1425.0,586.0,0.2092857142857143,-555,4.05,23.0,27.0,-1.19,11.51,18.9,61.0,-1458.0,-10.0,0.0,-0.4279730265767552
2956423.0,1425.0,571.0,0.20392857142857143,-546,3.75,23.0,25.0,-1.25,11.34,18.54,453.0,-1163.0,117.0,0.0,-0.3898452994843316
2956940.0,1425.0,628.0,0.22428571428571428,-596,5.25,23.0,35.0,-1.43,10.05,19.32,156.0,-1090.0,-40.0,0.0,-0.5957635858786196
2957559.0,1425.0,609.0,0.2175,-588,4.5,23.0,30.0,-1.5,8.47,19.1,30.0,-931.0,-190.0,0.0,-0.5038000793335978
2958030.0,1425.0,582.0,0.20785714285714285,-564,4.35,23.0,29.0,-0.59,7.36,18.26,239.0,-794.0,71.0,0.0,-0.4671289170963903
2958900.0,1425.0,593.0,0.2117857142857143,-584,3.75,23.0,25.0,-1.0,6.94,18.99,8.0,-738.0,-137.0,0.0,-0.41697738992463307
2959291.0,1425.0,590.0,0.21071428571428572,-576,4.05,23.0,27.0,-1.14,7.41,19.26,-84.0,-867.0,63.0,0.0,-0.44416660055533513
2959550.0,1425.0,597.0,0.21321428571428572,-583,4.2,23.0,28.0,-0.84,8.92,18.41,116.0,-1077.0,16.0,0.0,-0.46621499404998024
2960057.0,1425.0,582.0,0.20785714285714285,-575,3.4499999999999997,23.0,23.0,-1.18,11.02,19.72,163.0,-1176.0,281.0,0.0,-0.3777072590241968
2960581.0,1425.0,531.0,0.18964285714285714,-509,3.15,23.0,21.0,-1.91,12.7,19.49,161.0,-1289.0,92.0,0.0,-0.30527885759619194
2961138.0,1425.0,564.0,0.20142857142857143,-535,3.0,23.0,20.0,-1.87,13.51,20.37,-110.0,-1718.0,126.0,0.0,-0.3055930186433955
2961614.0,1425.0,563.0,0.20107142857142857,-527,3.5999999999999996,23.0,24.0,-1.46,14.17,19.17,133.0,-1767.0,64.0,0.0,-0.3612280840936136
2962149.0,1425.0,571.0,0.20392857142857143,-536,3.5999999999999996,23.0,24.0,-1.26,14.83,18.33,290.0,-1721.0,221.0,0.0,-0.36739706465688216
2962654.0,1425.0,571.0,0.20392857142857143,-537,3.75,23.0,25.0,-1.56,14.59,19.39,-57.0,-1709.0,81.0,0.0,-0.38341927806426024
2963196.0,1425.0,577.0,0.20607142857142857,-541,4.35,23.0,29.0,-1.8,14.86,19.28,51.0,-1861.0,177.0,0.0,-0.44807933359777863
2963770.0,1425.0,619.0,0.22107142857142856,-594,4.5,23.0,30.0,-1.84,15.75,20.22,252.0,-1888.0,253.0,0.0,-0.5089408964696549
2964224.0,1425.0,455.0,0.1625,-423,2.25,23.0,15.0,-2.08,15.74,19.38,228.0,-1997.0,196.0,0.0,-0.18121380404601348
2964789.0,1425.0,479.0,0.17107142857142857,-412,2.55,23.0,17.0,-1.26,15.21,19.18,266.0,-1725.0,220.0,0.0,-0.2000349067830226
2965269.0,1425.0,445.0,0.15892857142857142,-378,2.25,23.0,15.0,-2.11,14.31,20.06,158.0,-1845.0,252.0,0.0,-0.16193573978579928
2965800.0,1425.0,401.0,0.1432142857142857,-308,1.95,23.0,13.0,-1.25,14.03,19.33,181.0,-1640.0,206.0,0.0,-0.1143546211820706
2966295.0,1425.0,422.0,0.15071428571428572,-335,1.95,23.0,13.0,-1.64,13.31,20.26,289.0,-1546.0,92.0,0.0,-0.12437921459738198
2966833.0,1425.0,401.0,0.1432142857142857,-322,1.5,23.0,10.0,-1.67,12.74,20.83,31.0,-1503.0,153.0,0.0,-0.09196350654502182
2967354.0,1425.0,196.0,0.07,-156,0.44999999999999996,23.0,3.0,-1.25,11.96,19.88,239.0,-1448.0,165.0,0.0,-0.01336612455374851
2967858.0,1425.0,169.0,0.06035714285714286,1,0.3,23.0,2.0,-1.64,11.28,20.07,91.0,-1399.0,152.0,0.0,5.7120190400634666e-05
2968379.0,1425.0,210.0,0.075,-3,1.3499999999999999,23.0,9.0,-0.92,10.21,20.58,283.0,-1130.0,232.0,0.0,-0.000771122570408568
2968897.0,1425.0,185.0,0.06607142857142857,0,0.3,23.0,2.0,-1.27,9.39,21.52,5.0,-1058.0,79.0,0.0,0.0
2969418.0,1425.0,160.0,0.05714285714285714,-2,0.3,23.0,2.0,-1.3,8.86,19.99,199.0,-964.0,58.0,0.0,-0.00011424038080126933
2970007.0,1425.0,162.0,0.05785714285714286,1,0.15,23.0,1.0,-0.97,7.93,21.74,-22.0,-886.0,19.0,0.0,2.8560095200317333e-05
2970495.0,1425.0,167.0,0.05964285714285714,1,0.3,23.0,2.0,-0.86,7.23,20.61,167.0,-772.0,-15.0,0.0,5.7120190400634666e-05
2971051.0,1425.0,171.0,0.06107142857142857,0,0.3,23.0,2.0,-0.86,6.41,21.49,34.0,-656.0,78.0,0.0,0.0
2971514.0,1425.0,166.0,0.05928571428571429,-3,0.3,23.0,2.0,-0.93,5.97,20.42,85.0,-640.0,-11.0,0.0,-0.00017136057120190399
2972028.0,1425.0,170.0,0.060714285714285714,0,0.3,23.0,2.0,-0.32,5.55,20.68,107.0,-595.0,24.0,0.0,0.0
2972542.0,1425.0,163.0,0.05821428571428571,-1,0.15,23.0,1.0,-0.63,5.11,21.28,45.0,-562.0,19.0,0.0,-2.8560095200317333e-05
2973086.0,1425.0,166.0,0.05928571428571429,1,0.3,23.0,2.0,-0.6,4.49,21.17,-121.0,-745.0,67.0,0.0,5.7120190400634666e-05
2973581.0,1425.0,166.0,0.05928571428571429,-2,0.3,23.0,2.0,-0.66,4.63,18.97,122.0,-469.0,-1.0,0.0,-0.00011424038080126933
2974111.0,1425.0,173.0,0.061785714285714284,-1,0.3,23.0,2.0,-0.36,3.94,20.36,75.0,-729.0,-59.0,0.0,-5.7120190400634666e-05
2974631.0,1425.0,157.0,0.05607142857142857,-2,0.3,23.0,2.0,0.22,3.35,18.87,199.0,-474.0,31.0,0.0,-0.00011424038080126933
2975143.0,1425.0,170.0,0.060714285714285714,-1,0.3,23.0,2.0,-0.67,2.42,20.2,-96.0,-504.0,6.0,0.0,-5.7120190400634666e-05
2975668.0,1425.0,157.0,0.05607142857142857,0,0.15,23.0,1.0,-0.44,2.25,18.73,35.0,-509.0,-22.0,0.0,0.0
2976178.0,1425.0,170.0,0.060714285714285714,2,0.3,23.0,2.0,0.24,2.0,19.5,187.0,-266.0,-36.0,0.0,0.00011424038080126933
2976722.0,1425.0,174.0,0.062142857142857146,0,0.3,23.0,2.0,-0.39,1.32,20.32,-231.0,-258.0,-118.0,0.0,0.0
2977219.0,1425.0,436.0,0.15571428571428572,-290,2.1,23.0,14.0,-0.06,0.86,18.89,110.0,-59.0,-140.0,0.0,-0.11595398651328839
2977745.0,1425.0,561.0,0.20035714285714284,-448,3.75,23.0,25.0,-0.22,0.14,20.85,-237.0,-22.0,-248.0,0.0,-0.31987306624355416
2978279.0,1425.0,537.0,0.19178571428571428,-475,3.5999999999999996,23.0,24.0,0.27,-1.98,19.79,142.0,263.0,-93.0,0.0,-0.32558508528361757
2978787.0,1425.0,177.0,0.06321428571428571,-204,0.3,23.0,2.0,-0.16,-3.92,18.87,28.0,426.0,55.0,0.0,-0.011652518841729471
2979304.0,1425.0,168.0,0.06,1,0.3,23.0,2.0,0.26,-4.59,20.11,-71.0,412.0,-7.0,0.0,5.7120190400634666e-05
2979813.0,1425.0,171.0,0.06107142857142857,-1,0.3,23.0,2.0,-0.05,-4.86,18.58,121.0,578.0,43.0,0.0,-5.7120190400634666e-05
2980343.0,1425.0,178.0,0.06357142857142857,1,0.3,23.0,2.0,0.36,-4.73,20.55,-161.0,387.0,15.0,0.0,5.7120190400634666e-05
2980870.0,1425.0,171.0,0.06107142857142857,-2,0.3,23.0,2.0,0.2,-4.12,19.28,86.0,478.0,25.0,0.0,-0.00011424038080126933
2981408.0,1425.0,189.0,0.0675,-1,0.3,23.0,2.0,0.11,-4.04,19.66,-51.0,452.0,-10.0,0.0,-5.7120190400634666e-05
2981897.0,1425.0,214.0,0.07642857142857143,-2,1.5,23.0,10.0,0.06,-3.49,19.76,164.0,485.0,52.0,0.0,-0.0005712019040063467
2982425.0,1425.0,444.0,0.15857142857142856,-314,2.25,23.0,15.0,0.37,-3.4,20.47,-162.0,414.0,-111.0,0.0,-0.13451804839349465
2982947.0,1425.0,502.0,0.1792857142857143,-396,3.4499999999999997,23.0,23.0,0.41,-4.15,18.54,63.0,396.0,-110.0,0.0,-0.26012534708449025
2983452.0,1425.0,510.0,0.18214285714285713,-434,2.85,23.0,19.0,-0.18,-4.45,21.15,-220.0,604.0,-110.0,0.0,-0.23550654502181675
2983979.0,1425.0,550.0,0.19642857142857142,-483,3.75,23.0,25.0,0.66,-5.21,18.78,235.0,694.0,-220.0,0.0,-0.3448631495438318
2984681.0,1425.0,564.0,0.20142857142857143,-509,3.9,23.0,26.0,0.4,-6.21,20.67,-355.0,653.0,-182.0,0.0,-0.37796429988099955
2985189.0,1425.0,557.0,0.19892857142857143,-523,3.9,23.0,26.0,0.4,-7.4,19.57,-23.0,886.0,-46.0,0.0,-0.3883601745339151
2985745.0,1425.0,591.0,0.21107142857142858,-550,4.05,23.0,27.0,0.27,-8.04,18.99,90.0,959.0,-180.0,0.0,-0.42411741372471234
2986093.0,1425.0,585.0,0.20892857142857144,-556,4.05,23.0,27.0,0.72,-9.32,19.56,-33.0,965.0,-157.0,0.0,-0.4287441491471638
2986588.0,1425.0,585.0,0.20892857142857144,-566,4.2,23.0,28.0,0.45,-9.57,20.18,-117.0,1127.0,-14.0,0.0,-0.4526203887346291
2987122.0,1425.0,640.0,0.22857142857142856,-601,4.8,23.0,32.0,0.61,-9.12,19.86,-185.0,992.0,-91.0,0.0,-0.5492677508925029
2987636.0,1425.0,626.0,0.22357142857142856,-603,4.95,23.0,33.0,0.22,-7.85,20.61,-352.0,744.0,-127.0,0.0,-0.5683173343911148
2988141.0,1425.0,633.0,0.22607142857142856,-626,4.8,23.0,32.0,0.33,-6.15,20.75,61.0,766.0,-20.0,0.0,-0.5721158270527568
2988652.0,1425.0,620.0,0.22142857142857142,-609,4.5,23.0,30.0,0.32,-5.46,21.11,-266.0,592.0,-86.0,0.0,-0.5217929393097978
2989179.0,1425.0,610.0,0.21785714285714286,-597,4.35,23.0,29.0,0.37,-4.94,21.41,-121.0,716.0,-88.0,0.0,-0.49446092820309395
2989693.0,1425.0,613.0,0.21892857142857142,-604,4.05,23.0,27.0,0.18,-4.76,20.72,-193.0,491.0,-174.0,0.0,-0.46575803252677506
2990217.0,1425.0,617.0,0.22035714285714286,-611,4.35,23.0,29.0,0.39,-5.08,20.48,-150.0,537.0,-94.0,0.0,-0.5060563268544228
2990750.0,1425.0,613.0,0.21892857142857142,-606,4.2,23.0,28.0,0.02,-5.03,21.63,56.0,686.0,-43.0,0.0,-0.4846076953589846
2991263.0,1425.0,601.0,0.21464285714285714,-602,3.9,23.0,26.0,0.37,-5.3,20.63,-259.0,708.0,-151.0,0.0,-0.4470226100753669
2991785.0,1425.0,609.0,0.2175,-600,4.2,23.0,28.0,0.44,-6.5,21.41,-119.0,822.0,-171.0,0.0,-0.4798095993653313
2992299.0,1425.0,608.0,0.21714285714285714,-613,4.05,23.0,27.0,0.35,-7.6,20.11,2.0,863.0,-9.0,0.0,-0.47269813566045216
2992817.0,1425.0,604.0,0.21571428571428572,-594,3.9,23.0,26.0,0.52,-8.33,20.99,-168.0,1062.0,-106.0,0.0,-0.44108211027370087
2993355.0,1425.0,611.0,0.21821428571428572,-599,4.2,23.0,28.0,0.61,-9.12,20.88,-174.0,1233.0,-11.0,0.0,-0.47900991669972237
2993866.0,1425.0,604.0,0.21571428571428572,-589,3.75,23.0,25.0,0.61,-10.41,19.86,61.0,1120.0,8.0,0.0,-0.42054740182467276
2994367.0,1425.0,604.0,0.21571428571428572,-589,4.05,23.0,27.0,0.47,-11.91,19.58,-226.0,1276.0,53.0,0.0,-0.45419119397064656
2994903.0,1425.0,695.0,0.24821428571428572,-671,5.25,23.0,35.0,0.92,-13.38,19.54,-77.0,1593.0,99.0,0.0,-0.6707338357794526
2995437.0,1425.0,677.0,0.2417857142857143,-687,5.1,23.0,34.0,0.75,-14.3,19.85,-86.0,1633.0,-46.0,0.0,-0.6671067036890123
2995954.0,1425.0,668.0,0.23857142857142857,-679,4.8,23.0,32.0,0.77,-14.76,19.66,-147.0,1847.0,51.0,0.0,-0.6205537485124949
2996455.0,1425.0,683.0,0.24392857142857144,-689,5.55,23.0,37.0,0.77,-15.45,19.6,49.0,1958.0,121.0,0.0,-0.7280825069416897
2996975.0,1425.0,671.0,0.23964285714285713,-682,5.25,23.0,35.0,0.88,-16.21,18.82,41.0,1796.0,11.0,0.0,-0.6817294724315748
2997497.0,1425.0,670.0,0.2392857142857143,-683,4.95,23.0,33.0,0.82,-17.02,19.0,-147.0,1998.0,149.0,0.0,-0.6437159857199525
2998061.0,1425.0,698.0,0.24928571428571428,-696,5.55,23.0,37.0,0.73,-17.09,19.16,-38.0,1948.0,124.0,0.0,-0.735479571598572
2998537.0,1425.0,707.0,0.2525,-703,5.55,23.0,37.0,0.49,-16.79,19.0,-55.0,1946.0,136.0,0.0,-0.7428766362554541
2999046.0,1425.0,689.0,0.24607142857142858,-704,5.3999999999999995,23.0,36.0,0.66,-17.08,18.89,-136.0,2147.0,171.0,0.0,-0.7238270527568424
2999585.0,1425.0,678.0,0.24214285714285713,-706,5.3999999999999995,23.0,36.0,0.9,-17.68,19.17,-143.0,2059.0,105.0,0.0,-0.7258833796112653
3000123.0,1425.0,679.0,0.2425,-701,5.3999999999999995,23.0,36.0,0.85,-18.36,18.28,-109.0,2175.0,266.0,0.0,-0.7207425624752082
3000675.0,1425.0,699.0,0.24964285714285714,-713,5.7,23.0,38.0,0.99,-18.52,18.61,-77.0,2245.0,97.0,0.0,-0.7738072193573979
3001150.0,1425.0,750.0,0.26785714285714285,-767,6.3,23.0,42.0,1.06,-18.86,19.47,-59.0,2244.0,19.0,0.0,-0.9200349067830226
3001656.0,1425.0,756.0,0.27,-778,7.05,23.0,47.0,0.98,-19.83,18.58,-37.0,2277.0,24.0,0.0,-1.0443284410948035
3002172.0,1425.0,755.0,0.26964285714285713,-792,6.8999999999999995,23.0,46.0,1.14,-20.94,19.18,-97.0,2628.0,204.0,0.0,-1.040501388337961
3002743.0,1425.0,734.0,0.2621428571428571,-786,6.1499999999999995,23.0,41.0,1.12,-21.73,18.51,0.0,2545.0,379.0,0.0,-0.9203776279254263
3003221.0,1425.0,699.0,0.24964285714285714,-737,5.7,23.0,38.0,1.21,-21.82,18.2,11.0,2376.0,337.0,0.0,-0.7998540261800873
3003758.0,1425.0,685.0,0.24464285714285713,-722,5.55,23.0,37.0,1.38,-21.21,18.73,-256.0,2433.0,367.0,0.0,-0.7629543831812772
3004312.0,1425.0,693.0,0.2475,-720,6.3,23.0,42.0,1.07,-20.03,18.53,-44.0,2232.0,248.0,0.0,-0.863657278857596
3004802.0,1425.0,683.0,0.24392857142857144,-725,5.25,23.0,35.0,1.2,-18.71,18.94,-35.0,2301.0,129.0,0.0,-0.7247124157080523
3005293.0,1425.0,669.0,0.23892857142857143,-689,5.3999999999999995,23.0,36.0,0.63,-17.29,18.25,8.0,1907.0,151.0,0.0,-0.7084046013486711
3005846.0,1425.0,658.0,0.235,-685,4.95,23.0,33.0,0.61,-16.31,18.61,-365.0,1849.0,118.0,0.0,-0.6456009520031735
3006377.0,1425.0,652.0,0.23285714285714285,-667,4.8,23.0,32.0,0.34,-14.78,18.62,130.0,1921.0,-22.0,0.0,-0.6095866719555731
3006863.0,1425.0,680.0,0.24285714285714285,-696,5.3999999999999995,24.0,36.0,0.95,-13.76,20.5,-347.0,1597.0,96.0,0.0,-0.7156017453391511
3007363.0,1425.0,662.0,0.23642857142857143,-677,4.95,23.0,33.0,0.99,-14.29,18.97,-73.0,1953.0,18.0,0.0,-0.6380610868702896
3007926.0,1425.0,717.0,0.25607142857142856,-731,5.7,23.0,38.0,0.95,-15.89,18.97,-23.0,1753.0,-3.0,0.0,-0.7933423244744149
3008413.0,1425.0,698.0,0.24928571428571428,-717,5.3999999999999995,23.0,36.0,0.74,-17.65,17.78,-16.0,1975.0,296.0,0.0,-0.737193177310591
3009018.0,1425.0,657.0,0.23464285714285715,-674,4.5,23.0,30.0,0.78,-18.24,17.62,-17.0,2087.0,277.0,0.0,-0.5774851249504165
3009440.0,1425.0,197.0,0.07035714285714285,-491,0.44999999999999996,23.0,3.0,0.11,-18.55,16.28,-56.0,1948.0,461.0,0.0,-0.04206902023006743
3009978.0,1425.0,162.0,0.05785714285714286,-32,0.3,23.0,2.0,0.41,-17.66,17.38,-65.0,1965.0,461.0,0.0,-0.0018278460928203093
3010500.0,1425.0,161.0,0.0575,0,0.3,23.0,2.0,0.35,-16.26,16.6,58.0,1727.0,333.0,0.0,0.0
3011181.0,1425.0,156.0,0.055714285714285716,1,0.3,23.0,2.0,0.29,-15.16,16.95,-12.0,1692.0,219.0,0.0,5.7120190400634666e-05
3011540.0,1425.0,164.0,0.05857142857142857,1,0.3,23.0,2.0,0.95,-12.9,20.17,-137.0,1543.0,376.0,0.0,5.7120190400634666e-05
3012255.0,1425.0,860.0,0.30714285714285716,714,7.05,23.0,47.0,0.54,-9.94,21.11,35.0,1690.0,501.0,0.0,0.958419674732249
3012601.0,1425.0,952.0,0.34,853,9.75,23.0,65.0,0.5,-8.57,20.97,-84.0,1236.0,777.0,0.0,1.5835144783815946
3013107.0,1425.0,994.0,0.355,954,12.45,23.0,83.0,0.47,-8.37,21.04,-192.0,1349.0,912.0,0.0,2.2614454581515266
3013604.0,1425.0,1001.0,0.3575,1028,13.65,23.0,91.0,0.66,-8.54,21.37,-20.0,1250.0,445.0,0.0,2.671739785799286
3014156.0,1425.0,166.0,0.05928571428571429,518,2.1,23.0,14.0,0.83,-8.1,21.01,-318.0,1179.0,-57.0,0.0,0.20711781039270136
3014676.0,1425.0,159.0,0.05678571428571429,1,0.3,24.0,2.0,0.46,-6.8,19.5,173.0,762.0,-70.0,0.0,5.7120190400634666e-05
3015194.0,1425.0,159.0,0.05678571428571429,1,0.3,21.0,2.0,0.37,-5.78,18.71,-74.0,547.0,-60.0,0.0,5.7120190400634666e-05
3015705.0,1425.0,166.0,0.05928571428571429,3,0.3,23.0,2.0,0.44,-4.57,19.63,32.0,582.0,-229.0,0.0,0.00017136057120190399
3016218.0,1425.0,1109.0,0.3960714285714286,-811,10.65,24.0,71.0,0.3,-4.59,21.45,-580.0,1011.0,-765.0,0.0,-1.6445188417294725
3016757.0,1425.0,1040.0,0.37142857142857144,-971,11.85,23.0,79.0,0.31,-7.44,20.93,129.0,1167.0,-607.0,0.0,-2.190816342721142
3017246.0,1425.0,498.0,0.17785714285714285,-782,7.05,23.0,47.0,0.7,-10.26,19.03,51.0,1141.0,106.0,0.0,-1.0496977389924633
3017780.0,1425.0,155.0,0.055357142857142855,-1,0.3,23.0,2.0,0.68,-11.09,19.54,-276.0,1361.0,179.0,0.0,-5.7120190400634666e-05
3018325.0,1425.0,154.0,0.055,3,0.3,23.0,2.0,0.23,-10.24,19.64,98.0,1305.0,135.0,0.0,0.00017136057120190399
3018815.0,1425.0,162.0,0.05785714285714286,0,0.3,23.0,2.0,0.39,-8.8,20.59,-139.0,1041.0,107.0,0.0,0.0
3019343.0,1425.0,163.0,0.05821428571428571,1,0.3,24.0,2.0,0.75,-7.06,20.3,-27.0,938.0,23.0,0.0,5.7120190400634666e-05
3019867.0,1425.0,160.0,0.05714285714285714,1,0.3,24.0,2.0,0.37,-5.61,21.15,-150.0,842.0,54.0,0.0,5.7120190400634666e-05
3020369.0,1425.0,167.0,0.05964285714285714,1,0.3,23.0,2.0,0.16,-4.41,20.94,72.0,617.0,11.0,0.0,5.7120190400634666e-05
3020910.0,1425.0,162.0,0.05785714285714286,1,0.15,24.0,1.0,-0.02,-3.57,20.86,90.0,216.0,-3.0,0.0,2.8560095200317333e-05
3021432.0,1425.0,184.0,0.06571428571428571,2,0.15,24.0,1.0,0.16,-2.68,19.08,112.0,178.0,7.0,0.0,5.7120190400634666e-05
3021939.0,1425.0,192.0,0.06857142857142857,-2,0.44999999999999996,24.0,3.0,0.17,-2.42,19.78,-131.0,208.0,-72.0,0.0,-0.00017136057120190399
3022458.0,1425.0,331.0,0.11821428571428572,-179,1.2,24.0,8.0,-0.28,-2.71,19.66,9.0,350.0,-6.0,0.0,-0.04089805632685442
3023001.0,1425.0,367.0,0.13107142857142856,-227,1.2,24.0,8.0,0.13,-3.19,20.2,-54.0,226.0,-80.0,0.0,-0.051865132883776276
3023507.0,1425.0,181.0,0.06464285714285714,-3,1.65,24.0,11.0,0.34,-3.77,19.28,-1.0,474.0,-9.0,0.0,-0.0009424831416104719
3024055.0,1425.0,156.0,0.055714285714285716,-2,0.0,21.0,0.0,0.28,-4.03,21.55,-45.0,523.0,-15.0,0.0,0.0
3024529.0,1425.0,161.0,0.0575,-2,0.3,24.0,2.0,-0.14,-3.55,21.17,-1.0,544.0,62.0,0.0,-0.00011424038080126933
3025076.0,1425.0,623.0,0.2225,389,4.95,24.0,33.0,0.14,-2.8,22.56,-72.0,734.0,139.0,0.0,0.36662594208647364
3025566.0,1425.0,724.0,0.25857142857142856,627,5.25,23.0,35.0,0.28,-2.86,22.01,86.0,521.0,308.0,0.0,0.6267512891709639
3026217.0,1425.0,810.0,0.2892857142857143,774,7.8,23.0,52.0,0.17,-4.06,21.74,-74.0,676.0,296.0,0.0,1.149486711622372
3026616.0,1425.0,789.0,0.2817857142857143,777,8.1,23.0,54.0,0.3,-5.57,22.02,-136.0,978.0,367.0,0.0,1.1983244744149146
3027132.0,1425.0,244.0,0.08714285714285715,645,4.2,24.0,28.0,0.58,-6.57,21.79,-107.0,939.0,-48.0,0.0,0.5157953193177311
3027652.0,1425.0,160.0,0.05714285714285714,3,0.3,23.0,2.0,1.04,-6.08,21.78,-78.0,925.0,-28.0,0.0,0.00017136057120190399
3028173.0,1425.0,493.0,0.17607142857142857,351,3.0,24.0,20.0,0.36,-5.58,21.91,-132.0,1004.0,-3.0,0.0,0.2004918683062277
3028721.0,1425.0,306.0,0.10928571428571429,352,1.05,23.0,7.0,0.31,-5.5,22.14,-96.0,639.0,22.0,0.0,0.07037207457358192
3029236.0,1425.0,156.0,0.055714285714285716,0,0.15,24.0,1.0,0.26,-4.7,20.57,45.0,645.0,-25.0,0.0,0.0
3029732.0,1425.0,160.0,0.05714285714285714,1,0.3,24.0,2.0,0.27,-4.29,20.54,-47.0,522.0,-71.0,0.0,5.7120190400634666e-05
3030271.0,1425.0,162.0,0.05785714285714286,1,0.15,24.0,1.0,0.38,-4.08,20.3,-55.0,383.0,-84.0,0.0,2.8560095200317333e-05
3030776.0,1425.0,166.0,0.05928571428571429,0,0.3,24.0,2.0,0.15,-3.87,20.26,-45.0,455.0,-49.0,0.0,0.0
3031289.0,1425.0,163.0,0.05821428571428571,2,0.3,24.0,2.0,0.03,-3.65,20.32,-24.0,295.0,-6.0,0.0,0.00011424038080126933
3031800.0,1425.0,163.0,0.05821428571428571,0,0.3,24.0,2.0,0.02,-3.29,20.55,-140.0,260.0,-35.0,0.0,0.0
3032347.0,1425.0,154.0,0.055,0,0.3,24.0,2.0,0.18,-2.89,20.23,75.0,304.0,-105.0,0.0,0.0
3032864.0,1425.0,162.0,0.05785714285714286,1,0.3,24.0,2.0,0.17,-2.64,20.46,1.0,231.0,-121.0,0.0,5.7120190400634666e-05
3033423.0,1425.0,157.0,0.05607142857142857,4,0.3,24.0,2.0,0.1,-2.58,20.8,-95.0,248.0,64.0,0.0,0.00022848076160253867
3033931.0,1425.0,159.0,0.05678571428571429,-2,0.3,24.0,2.0,-0.14,-2.5,20.57,-83.0,217.0,-32.0,0.0,-0.00011424038080126933
3034457.0,1425.0,159.0,0.05678571428571429,2,0.0,22.0,0.0,-0.02,-2.26,20.13,71.0,100.0,-59.0,0.0,0.0
3034930.0,1425.0,161.0,0.0575,3,0.0,20.0,0.0,0.15,-2.06,20.94,-29.0,147.0,-71.0,0.0,0.0
3035451.0,1425.0,152.0,0.054285714285714284,1,0.0,20.0,0.0,0.11,-2.04,20.7,21.0,117.0,-3.0,0.0,0.0
3035983.0,1425.0,164.0,0.05857142857142857,2,0.0,20.0,0.0,-0.15,-1.84,20.42,103.0,116.0,-78.0,0.0,0.0
3036523.0,1425.0,156.0,0.055714285714285716,-1,0.3,24.0,2.0,-0.02,-1.79,20.95,-57.0,157.0,-21.0,0.0,-5.7120190400634666e-05
3037012.0,1425.0,157.0,0.05607142857142857,-2,0.3,24.0,2.0,0.09,-1.53,20.79,-15.0,24.0,-89.0,0.0,-0.00011424038080126933
3037534.0,1425.0,163.0,0.05821428571428571,-1,0.3,24.0,2.0,0.08,-1.44,20.91,-67.0,129.0,-90.0,0.0,-5.7120190400634666e-05
3038114.0,1425.0,161.0,0.0575,0,0.44999999999999996,24.0,3.0,-0.2,-1.49,20.9,22.0,18.0,-57.0,0.0,0.0
3038617.0,1425.0,161.0,0.0575,1,0.3,24.0,2.0,0.03,-1.4,21.23,-110.0,63.0,-35.0,0.0,5.7120190400634666e-05
3039083.0,1425.0,160.0,0.05714285714285714,1,0.3,24.0,2.0,-0.07,-1.39,20.67,138.0,126.0,-69.0,0.0,5.7120190400634666e-05
3039624.0,1425.0,154.0,0.055,-2,0.3,24.0,2.0,-0.09,-1.33,21.72,-32.0,12.0,-87.0,0.0,-0.00011424038080126933
3040122.0,1425.0,166.0,0.05928571428571429,0,0.3,24.0,2.0,0.0,-1.39,20.85,-13.0,68.0,-58.0,0.0,0.0
3040764.0,1425.0,165.0,0.05892857142857143,1,0.15,23.0,1.0,0.17,-1.48,20.96,68.0,8.0,-123.0,0.0,2.8560095200317333e-05
3041187.0,1425.0,158.0,0.056428571428571425,0,0.15,24.0,1.0,-0.08,-1.57,21.1,-142.0,35.0,-75.0,0.0,0.0
3041690.0,1425.0,158.0,0.056428571428571425,0,0.44999999999999996,23.0,3.0,-0.09,-1.71,20.46,158.0,134.0,-52.0,0.0,0.0
3042235.0,1425.0,159.0,0.05678571428571429,1,0.3,24.0,2.0,0.05,-1.86,21.27,-54.0,36.0,-74.0,0.0,5.7120190400634666e-05
3042762.0,1425.0,170.0,0.060714285714285714,1,0.3,24.0,2.0,0.03,-1.97,21.11,-66.0,161.0,-54.0,0.0,5.7120190400634666e-05
3043255.0,1425.0,164.0,0.05857142857142857,0,0.44999999999999996,24.0,3.0,0.1,-1.95,21.25,89.0,138.0,-125.0,0.0,0.0
3043775.0,1425.0,175.0,0.0625,4,0.15,23.0,1.0,-0.08,-2.01,21.34,-41.0,58.0,-51.0,0.0,0.00011424038080126933
3044333.0,1425.0,170.0,0.060714285714285714,1,0.3,24.0,2.0,0.02,-1.96,21.17,17.0,197.0,-39.0,0.0,5.7120190400634666e-05
3044828.0,1425.0,184.0,0.06571428571428571,0,0.3,24.0,2.0,0.07,-2.05,21.56,4.0,120.0,-141.0,0.0,0.0
3045366.0,1425.0,173.0,0.061785714285714284,-2,0.15,24.0,1.0,0.03,-2.22,21.93,-139.0,166.0,-12.0,0.0,-5.7120190400634666e-05
3045883.0,1425.0,198.0,0.07071428571428572,3,0.15,23.0,1.0,0.01,-2.2,20.82,145.0,145.0,-59.0,0.0,8.568028560095199e-05
3046380.0,1425.0,168.0,0.06,2,0.3,24.0,2.0,-0.03,-2.2,21.44,-43.0,40.0,-109.0,0.0,0.00011424038080126933
3046889.0,1425.0,161.0,0.0575,-2,0.3,22.0,2.0,0.14,-2.47,21.49,-43.0,277.0,130.0,0.0,-0.00011424038080126933
3047432.0,1425.0,163.0,0.05821428571428571,-2,0.3,24.0,2.0,-0.01,-2.62,22.06,118.0,431.0,-5.0,0.0,-0.00011424038080126933
3047926.0,1425.0,405.0,0.14464285714285716,244,2.85,24.0,19.0,-0.03,-1.98,24.62,-223.0,460.0,65.0,0.0,0.13240460134867119
3048475.0,1425.0,524.0,0.18714285714285714,423,3.5999999999999996,23.0,24.0,-0.04,-1.52,23.74,67.0,474.0,156.0,0.0,0.2899420864736216
3048999.0,1425.0,516.0,0.18428571428571427,444,3.0,23.0,20.0,-0.15,-1.35,23.84,-2.0,268.0,75.0,0.0,0.2536136453788179
3049488.0,1425.0,529.0,0.18892857142857142,468,3.3,24.0,22.0,0.14,-1.54,23.54,9.0,360.0,103.0,0.0,0.2940547401824672
3050010.0,1425.0,172.0,0.06142857142857143,211,0.6,24.0,4.0,0.24,-1.67,23.24,-21.0,312.0,-87.0,0.0,0.024104720349067826
3050551.0,1425.0,310.0,0.11071428571428571,138,0.75,23.0,5.0,-0.03,-1.7,22.75,21.0,237.0,-78.0,0.0,0.01970646568821896
3051086.0,1425.0,393.0,0.14035714285714285,263,1.7999999999999998,23.0,12.0,-0.2,-1.51,23.21,12.0,177.0,-35.0,0.0,0.09013566045220149
3051582.0,1425.0,372.0,0.13285714285714287,255,1.7999999999999998,24.0,12.0,0.18,-1.25,22.85,0.0,193.0,-43.0,0.0,0.08739389131297103
3052105.0,1425.0,379.0,0.13535714285714287,266,1.65,24.0,11.0,-0.02,-0.9,24.29,-117.0,261.0,-68.0,0.0,0.08356683855612851
3052609.0,1425.0,387.0,0.1382142857142857,275,1.7999999999999998,23.0,12.0,-0.3,-0.54,23.63,88.0,299.0,-25.0,0.0,0.09424831416104719
3053118.0,1425.0,450.0,0.16071428571428573,346,2.85,24.0,19.0,-0.28,-0.47,24.38,76.0,267.0,148.0,0.0,0.18775406584688617
3053650.0,1425.0,526.0,0.18785714285714286,449,4.05,24.0,27.0,0.15,-0.74,24.49,-86.0,405.0,198.0,0.0,0.346234034113447
3054160.0,1425.0,686.0,0.245,660,3.5999999999999996,23.0,24.0,0.24,-1.99,24.54,-12.0,353.0,-90.0,0.0,0.45239190797302653
3054721.0,1425.0,161.0,0.0575,1,0.3,23.0,2.0,0.07,-2.19,23.41,-83.0,266.0,-28.0,0.0,5.7120190400634666e-05
3055214.0,1425.0,162.0,0.05785714285714286,-2,0.3,24.0,2.0,0.04,-2.27,22.21,1.0,214.0,-99.0,0.0,-0.00011424038080126933
3055734.0,1425.0,155.0,0.055357142857142855,-1,0.0,22.0,0.0,0.16,-2.32,21.81,70.0,143.0,-107.0,0.0,0.0
3056252.0,1425.0,159.0,0.05678571428571429,-2,0.3,24.0,2.0,0.09,-2.53,21.64,-94.0,83.0,-75.0,0.0,-0.00011424038080126933
3056807.0,1425.0,166.0,0.05928571428571429,-3,0.3,24.0,2.0,0.18,-2.55,21.97,30.0,271.0,-54.0,0.0,-0.00017136057120190399
3057286.0,1425.0,309.0,0.11035714285714286,-141,0.8999999999999999,24.0,6.0,-0.04,-2.38,22.56,-29.0,130.0,-97.0,0.0,-0.024161840539468463
3057812.0,1425.0,311.0,0.11107142857142857,-162,1.65,24.0,11.0,-0.02,-2.16,21.62,116.0,98.0,-56.0,0.0,-0.050894089646965485
3058414.0,1425.0,172.0,0.06142857142857143,-2,0.3,23.0,2.0,0.16,-2.05,22.75,-173.0,126.0,-57.0,0.0,-0.00011424038080126933
3058856.0,1425.0,461.0,0.16464285714285715,-168,2.4,23.0,16.0,0.07,-1.95,22.46,-148.0,172.0,-205.0,0.0,-0.07676953589845299
3059367.0,1425.0,222.0,0.07928571428571428,-225,0.44999999999999996,24.0,3.0,-0.21,-2.23,21.82,11.0,147.0,-139.0,0.0,-0.0192780642602142
